{
"type": "FeatureCollection",
"name": "Schools",
"crs": { "type": "name", "properties": { "name": "urn:ogc:def:crs:OGC:1.3:CRS84" } },
"features": [
{ "type": "Feature", "properties": { "OBJECTID": 1, "NAME": "Akili Academy of New Orleans", "ADDRESS": "3811 N Galvez St" }, "geometry": { "type": "Point", "coordinates": [ -90.033596752132539, 29.976752318544953 ] } },
{ "type": "Feature", "properties": { "OBJECTID": 2, "NAME": "Alice M. Harte Elementary School", "ADDRESS": "5300 Berkley Dr" }, "geometry": { "type": "Point", "coordinates": [ -89.999537304406559, 29.918452476523605 ] } },
{ "type": "Feature", "properties": { "OBJECTID": 3, "NAME": "Andrew Wilson Charter School", "ADDRESS": "3617 General Pershing St" }, "geometry": { "type": "Point", "coordinates": [ -90.102604755236456, 29.946262703348776 ] } },
{ "type": "Feature", "properties": { "OBJECTID": 4, "NAME": "ARISE Academy", "ADDRESS": "3819 St Claude Ave" }, "geometry": { "type": "Point", "coordinates": [ -90.036728484468426, 29.966273856608584 ] } },
{ "type": "Feature", "properties": { "OBJECTID": 5, "NAME": "Audubon Charter School: Gentilly", "ADDRESS": "4720 Painters St" }, "geometry": { "type": "Point", "coordinates": [ -90.052980565881668, 30.007718813602885 ] } },
{ "type": "Feature", "properties": { "OBJECTID": 6, "NAME": "Audubon Charter School French", "ADDRESS": "428 Broadway St" }, "geometry": { "type": "Point", "coordinates": [ -90.129890729118785, 29.93418179082115 ] } },
{ "type": "Feature", "properties": { "OBJECTID": 7, "NAME": "Audubon Charter School French", "ADDRESS": "1111 Milan St" }, "geometry": { "type": "Point", "coordinates": [ -90.099079770037605, 29.923235788358525 ] } },
{ "type": "Feature", "properties": { "OBJECTID": 8, "NAME": "Benjamin Franklin Elementary Mathematics and Science School ", "ADDRESS": "401 Nashville Ave" }, "geometry": { "type": "Point", "coordinates": [ -90.119482506104504, 29.918176458191525 ] } },
{ "type": "Feature", "properties": { "OBJECTID": 9, "NAME": "Benjamin Franklin High School", "ADDRESS": "2001 Leon C Simon Dr" }, "geometry": { "type": "Point", "coordinates": [ -90.065515531387732, 30.024361548888965 ] } },
{ "type": "Feature", "properties": { "OBJECTID": 10, "NAME": "Bricolage Academy", "ADDRESS": "2426 Esplanade Ave" }, "geometry": { "type": "Point", "coordinates": [ -90.076410238484243, 29.974369423801669 ] } },
{ "type": "Feature", "properties": { "OBJECTID": 11, "NAME": "Abramson Sci Academy", "ADDRESS": "5552 Read Blvd" }, "geometry": { "type": "Point", "coordinates": [ -89.971978506023916, 30.028904618593657 ] } },
{ "type": "Feature", "properties": { "OBJECTID": 12, "NAME": "G.W. Carver High School", "ADDRESS": "3059 Higgins Blvd" }, "geometry": { "type": "Point", "coordinates": [ -90.037433674429565, 29.993904331970366 ] } },
{ "type": "Feature", "properties": { "OBJECTID": 13, "NAME": "Livingston Collegiate Academy", "ADDRESS": "7301 Dwyer Rd" }, "geometry": { "type": "Point", "coordinates": [ -90.003100435400768, 30.023245312316256 ] } },
{ "type": "Feature", "properties": { "OBJECTID": 14, "NAME": "Dr. Martin Luther King Jr. Charter School For Science and Technology", "ADDRESS": "1617 Caffin Ave" }, "geometry": { "type": "Point", "coordinates": [ -90.013640259497208, 29.966777460047677 ] } },
{ "type": "Feature", "properties": { "OBJECTID": 15, "NAME": "Dwight D. Eisenhower Academy of Global Studies", "ADDRESS": "3700 Tall Pines Dr" }, "geometry": { "type": "Point", "coordinates": [ -89.998168480583914, 29.905641084107593 ] } },
{ "type": "Feature", "properties": { "OBJECTID": 16, "NAME": "Edna Karr High School", "ADDRESS": "3332 Huntlee Dr" }, "geometry": { "type": "Point", "coordinates": [ -90.00417726677091, 29.921169843226068 ] } },
{ "type": "Feature", "properties": { "OBJECTID": 17, "NAME": "Edward Hynes Charter School - Lakeview Campus", "ADDRESS": "990 Harrison Ave" }, "geometry": { "type": "Point", "coordinates": [ -90.101628400406241, 30.003508739454389 ] } },
{ "type": "Feature", "properties": { "OBJECTID": 18, "NAME": "Einstein Charter High School at Sarah Towles Reed", "ADDRESS": "5316 Michoud Blvd" }, "geometry": { "type": "Point", "coordinates": [ -89.93077374071467, 30.042044950074779 ] } },
{ "type": "Feature", "properties": { "OBJECTID": 19, "NAME": "Einstein Charter Middle School at Sarah Towles Reed", "ADDRESS": "5316 Michoud Blvd" }, "geometry": { "type": "Point", "coordinates": [ -89.93077374071467, 30.042044950074779 ] } },
{ "type": "Feature", "properties": { "OBJECTID": 20, "NAME": "Einstein Charter School at Sherwood Forest", "ADDRESS": "4801 Maid Marion Dr" }, "geometry": { "type": "Point", "coordinates": [ -89.954338394593336, 30.02492048025675 ] } },
{ "type": "Feature", "properties": { "OBJECTID": 21, "NAME": "Einstein Charter School at Village De L’est", "ADDRESS": "5100 Cannes St" }, "geometry": { "type": "Point", "coordinates": [ -89.93077374071467, 30.042044950074779 ] } },
{ "type": "Feature", "properties": { "OBJECTID": 22, "NAME": "Elan Academy", "ADDRESS": "709 Park Blvd" }, "geometry": { "type": "Point", "coordinates": [ -90.047194496791917, 29.939719092522541 ] } },
{ "type": "Feature", "properties": { "OBJECTID": 23, "NAME": "Eleanor McMain Secondary School", "ADDRESS": "5721 S Claiborne Ave" }, "geometry": { "type": "Point", "coordinates": [ -90.111868411843645, 29.941989354139654 ] } },
{ "type": "Feature", "properties": { "OBJECTID": 24, "NAME": "ENCORE Academy", "ADDRESS": "2518 Arts St" }, "geometry": { "type": "Point", "coordinates": [ -90.051278030256512, 29.983675489576299 ] } },
{ "type": "Feature", "properties": { "OBJECTID": 25, "NAME": "Esperanza Charter School", "ADDRESS": "4407 S Carrollton Ave" }, "geometry": { "type": "Point", "coordinates": [ -90.104067502441737, 29.971727835404113 ] } },
{ "type": "Feature", "properties": { "OBJECTID": 26, "NAME": "Fannie C. Williams Charter School", "ADDRESS": "11755 Dwyer Rd" }, "geometry": { "type": "Point", "coordinates": [ -89.949483674002906, 30.029379748434408 ] } },
{ "type": "Feature", "properties": { "OBJECTID": 27, "NAME": "FirstLine Schools:  Arthur Ashe", "ADDRESS": "1456 Gardena Dr" }, "geometry": { "type": "Point", "coordinates": [ -90.078010319417146, 30.010106505124156 ] } },
{ "type": "Feature", "properties": { "OBJECTID": 28, "NAME": "FirstLine Schools:  Langston Hughes Academy", "ADDRESS": "3519 Trafalgar St" }, "geometry": { "type": "Point", "coordinates": [ -90.080629527857681, 29.987903889179155 ] } },
{ "type": "Feature", "properties": { "OBJECTID": 29, "NAME": "FirstLine Schools:  Live Oak", "ADDRESS": "3128 Constance St" }, "geometry": { "type": "Point", "coordinates": [ -90.085125607992211, 29.923307719700208 ] } },
{ "type": "Feature", "properties": { "OBJECTID": 30, "NAME": "FirstLine Schools:  Phillis Wheatley Community School", "ADDRESS": "2300 Dumaine St" }, "geometry": { "type": "Point", "coordinates": [ -90.078121407091956, 29.969153252172266 ] } },
{ "type": "Feature", "properties": { "OBJECTID": 31, "NAME": "FirstLine Schools:  Samuel J Green Charter School", "ADDRESS": "2319 Valence St" }, "geometry": { "type": "Point", "coordinates": [ -90.105717597559234, 29.933595397682918 ] } },
{ "type": "Feature", "properties": { "OBJECTID": 32, "NAME": "Homer A. Plessy Community School", "ADDRESS": "721 St Philip St" }, "geometry": { "type": "Point", "coordinates": [ -90.062956576850794, 29.960925956681859 ] } },
{ "type": "Feature", "properties": { "OBJECTID": 33, "NAME": "International School of Louisiana: Dixon Campus (Spanish)", "ADDRESS": "4040 Eagle St" }, "geometry": { "type": "Point", "coordinates": [ -90.114000428831346, 29.972623853737684 ] } },
{ "type": "Feature", "properties": { "OBJECTID": 34, "NAME": "International School of Louisiana: Olivier Street Campus (Spanish) ", "ADDRESS": "502 Olivier St" }, "geometry": { "type": "Point", "coordinates": [ -90.049747826031492, 29.95046421361921 ] } },
{ "type": "Feature", "properties": { "OBJECTID": 35, "NAME": "International School of Louisiana: Camp Street Campus (French)", "ADDRESS": "1400 Camp St" }, "geometry": { "type": "Point", "coordinates": [ -90.073022787679363, 29.936419287498811 ] } },
{ "type": "Feature", "properties": { "OBJECTID": 36, "NAME": "James M. Singleton Charter School", "ADDRESS": "2220 Oretha Castle Haley Blvd" }, "geometry": { "type": "Point", "coordinates": [ -90.083402438004271, 29.936453749969409 ] } },
{ "type": "Feature", "properties": { "OBJECTID": 37, "NAME": "JCFA -  Algiers Campus", "ADDRESS": "1415 Teche St" }, "geometry": { "type": "Point", "coordinates": [ -90.05211056808642, 29.940788316427362 ] } },
{ "type": "Feature", "properties": { "OBJECTID": 38, "NAME": "John F. Kennedy High School (KIPP)", "ADDRESS": "6026 Paris Ave" }, "geometry": { "type": "Point", "coordinates": [ -90.076216739386254, 30.018994659635762 ] } },
{ "type": "Feature", "properties": { "OBJECTID": 39, "NAME": "Joseph A. Craig Charter School", "ADDRESS": "1423 St Philip St" }, "geometry": { "type": "Point", "coordinates": [ -90.069058005123708, 29.965073386154675 ] } },
{ "type": "Feature", "properties": { "OBJECTID": 40, "NAME": "KIPP Central City", "ADDRESS": "2514 Third St" }, "geometry": { "type": "Point", "coordinates": [ -90.090382197854481, 29.939780627253697 ] } },
{ "type": "Feature", "properties": { "OBJECTID": 41, "NAME": "KIPP East", "ADDRESS": "6519 Virgilian St" }, "geometry": { "type": "Point", "coordinates": [ -90.016997027111927, 30.020588880421183 ] } },
{ "type": "Feature", "properties": { "OBJECTID": 42, "NAME": "KIPP Leadership", "ADDRESS": "2300 St Claude Ave" }, "geometry": { "type": "Point", "coordinates": [ -90.053787079814086, 29.968229705085871 ] } },
{ "type": "Feature", "properties": { "OBJECTID": 43, "NAME": "KIPP Morial", "ADDRESS": "7701 Grant St" }, "geometry": { "type": "Point", "coordinates": [ -89.997510790778577, 30.018059590718135 ] } },
{ "type": "Feature", "properties": { "OBJECTID": 44, "NAME": "L. B. Landry – O. Perry Walker College and Career Preparatory High School", "ADDRESS": "1200 LB Landry Ave" }, "geometry": { "type": "Point", "coordinates": [ -90.040681346027213, 29.942298134039284 ] } },
{ "type": "Feature", "properties": { "OBJECTID": 45, "NAME": "Lake Forest Elementary Charter School", "ADDRESS": "11110 Lake Forest Blvd" }, "geometry": { "type": "Point", "coordinates": [ -89.958830916951754, 30.034732565731563 ] } },
{ "type": "Feature", "properties": { "OBJECTID": 46, "NAME": "Lawrence D. Crocker College Prep: A School for the Arts and Technology", "ADDRESS": "2301 Marengo St" }, "geometry": { "type": "Point", "coordinates": [ -90.099075197837678, 29.933812152194076 ] } },
{ "type": "Feature", "properties": { "OBJECTID": 47, "NAME": "Lusher Charter Elementary School", "ADDRESS": "7315 Willow St" }, "geometry": { "type": "Point", "coordinates": [ -90.122722250108637, 29.944692677534299 ] } },
{ "type": "Feature", "properties": { "OBJECTID": 48, "NAME": "Lusher Middle and High Charter School", "ADDRESS": "5624 Freret St" }, "geometry": { "type": "Point", "coordinates": [ -90.113973343210404, 29.93548009148995 ] } },
{ "type": "Feature", "properties": { "OBJECTID": 49, "NAME": "Lycée Français de la Nouvelle-Orléans", "ADDRESS": "5951 Patton St" }, "geometry": { "type": "Point", "coordinates": [ -90.121444198122987, 29.920409655088406 ] } },
{ "type": "Feature", "properties": { "OBJECTID": 50, "NAME": "Lycée Français de la Nouvelle-Orléans", "ADDRESS": "1800 Monroe St" }, "geometry": { "type": "Point", "coordinates": [ -90.130299201336754, 29.956339130463423 ] } },
{ "type": "Feature", "properties": { "OBJECTID": 51, "NAME": "Mary D. Coghill Elementary School", "ADDRESS": "4617 Mirabeau Ave" }, "geometry": { "type": "Point", "coordinates": [ -90.037118055615196, 30.011066685816321 ] } },
{ "type": "Feature", "properties": { "OBJECTID": 52, "NAME": "Mary McLeod Bethune Elementary Charter School", "ADDRESS": "2401 Humanity St" }, "geometry": { "type": "Point", "coordinates": [ -90.054285817554984, 29.992329640887494 ] } },
{ "type": "Feature", "properties": { "OBJECTID": 53, "NAME": "McDonogh #32 Literacy Charter School", "ADDRESS": "800 De Armas St" }, "geometry": { "type": "Point", "coordinates": [ -90.047989997937862, 29.943551789998736 ] } },
{ "type": "Feature", "properties": { "OBJECTID": 54, "NAME": "McDonogh #35 College Preparatory High School", "ADDRESS": "4000 Cadillac St" }, "geometry": { "type": "Point", "coordinates": [ -90.082495294393169, 29.998164270823814 ] } },
{ "type": "Feature", "properties": { "OBJECTID": 55, "NAME": "McDonogh #42 Elementary Charter School", "ADDRESS": "1651 N Tonti St" }, "geometry": { "type": "Point", "coordinates": [ -90.07096185283828, 29.978212398081478 ] } },
{ "type": "Feature", "properties": { "OBJECTID": 56, "NAME": "Mildred Osborne Charter School", "ADDRESS": "6701 Curran Blvd" }, "geometry": { "type": "Point", "coordinates": [ -90.015433802599404, 30.033874827318691 ] } },
{ "type": "Feature", "properties": { "OBJECTID": 57, "NAME": "New Orleans Center for Creative Arts", "ADDRESS": "2800 Chartres St" }, "geometry": { "type": "Point", "coordinates": [ -90.049373062405522, 29.962777496229691 ] } },
{ "type": "Feature", "properties": { "OBJECTID": 58, "NAME": "New Orleans Charter Science and Math High School (Sci High)", "ADDRESS": "5625 Loyola Ave" }, "geometry": { "type": "Point", "coordinates": [ -90.114656935750062, 29.933335645287187 ] } },
{ "type": "Feature", "properties": { "OBJECTID": 59, "NAME": "New Orleans Military and Maritime Academy (NOMMA)", "ADDRESS": "425 O'Bannon St" }, "geometry": { "type": "Point", "coordinates": [ -90.034505663792615, 29.950747147772713 ] } },
{ "type": "Feature", "properties": { "OBJECTID": 60, "NAME": "Noble Minds Institute for Whole Child Learning", "ADDRESS": "1333 S Carrollton Ave" }, "geometry": { "type": "Point", "coordinates": [ -90.128115270124383, 29.948396648899948 ] } },
{ "type": "Feature", "properties": { "OBJECTID": 61, "NAME": "Paul Habans Charter School", "ADDRESS": "3501 Seine St" }, "geometry": { "type": "Point", "coordinates": [ -90.01933751422041, 29.921267229757124 ] } },
{ "type": "Feature", "properties": { "OBJECTID": 62, "NAME": "Pierre A. Capdau Charter School at Avery Alexander Elementary", "ADDRESS": "5800 St Roch Ave" }, "geometry": { "type": "Point", "coordinates": [ -90.056662195003469, 30.01860966624243 ] } },
{ "type": "Feature", "properties": { "OBJECTID": 63, "NAME": "Accelerated High School", "ADDRESS": "3649 Laurel St" }, "geometry": { "type": "Point", "coordinates": [ -90.092402856036031, 29.920081623642297 ] } },
{ "type": "Feature", "properties": { "OBJECTID": 64, "NAME": "ReNEW Dolores T. Aaron Academy", "ADDRESS": "10200 Curran Blvd" }, "geometry": { "type": "Point", "coordinates": [ -89.978985311386154, 30.046974203904515 ] } },
{ "type": "Feature", "properties": { "OBJECTID": 65, "NAME": "ReNEW SciTech Academy", "ADDRESS": "820 Jackson Ave" }, "geometry": { "type": "Point", "coordinates": [ -90.075196441308975, 29.92752952225538 ] } },
{ "type": "Feature", "properties": { "OBJECTID": 66, "NAME": "Robert Russa Moton Charter School", "ADDRESS": "8550 Curran Blvd" }, "geometry": { "type": "Point", "coordinates": [ -89.995909311673245, 30.039337481897526 ] } },
{ "type": "Feature", "properties": { "OBJECTID": 67, "NAME": "Rooted School", "ADDRESS": "4238 St Charles Ave" }, "geometry": { "type": "Point", "coordinates": [ -90.100540646302136, 29.92639206311803 ] } },
{ "type": "Feature", "properties": { "OBJECTID": 68, "NAME": "Sophie B. Wright High School", "ADDRESS": "1426 Napoleon Ave" }, "geometry": { "type": "Point", "coordinates": [ -90.102343046615346, 29.925471091498363 ] } },
{ "type": "Feature", "properties": { "OBJECTID": 69, "NAME": "Success at Thurgood Marshall", "ADDRESS": "4621 Canal St" }, "geometry": { "type": "Point", "coordinates": [ -90.105943731826258, 29.978992637192594 ] } },
{ "type": "Feature", "properties": { "OBJECTID": 70, "NAME": "The Net Charter High School: Cental City", "ADDRESS": "1614 Oretha Castle Haley Blvd" }, "geometry": { "type": "Point", "coordinates": [ -90.079831673543268, 29.940039336590154 ] } },
{ "type": "Feature", "properties": { "OBJECTID": 71, "NAME": "The NET Charter High School: Gentilly", "ADDRESS": "6601 Franklin Ave" }, "geometry": { "type": "Point", "coordinates": [ -90.051300647217076, 30.027430534999919 ] } },
{ "type": "Feature", "properties": { "OBJECTID": 72, "NAME": "Travis Hill School: Orleans Justice Center", "ADDRESS": "2800 Perdido St" }, "geometry": { "type": "Point", "coordinates": [ -90.094716916862552, 29.96030482275647 ] } },
{ "type": "Feature", "properties": { "OBJECTID": 73, "NAME": "Warren Easton High School", "ADDRESS": "3019 Canal St" }, "geometry": { "type": "Point", "coordinates": [ -90.090408107719057, 29.96853781832829 ] } },
{ "type": "Feature", "properties": { "OBJECTID": 74, "NAME": "Kipp Central City ", "ADDRESS": "3127 Martin Luther King Jr Blvd" }, "geometry": { "type": "Point", "coordinates": [ -90.089932260355951, 29.947537691920932 ] } },
{ "type": "Feature", "properties": { "OBJECTID": 75, "NAME": "International School of Louisiana: Camp Street Campus (Spanish)", "ADDRESS": "1400 Camp St" }, "geometry": { "type": "Point", "coordinates": [ -90.073022787679363, 29.936419287498811 ] } },
{ "type": "Feature", "properties": { "OBJECTID": 76, "NAME": "International School of Louisiana: Dixon Campus (French)", "ADDRESS": "4040 Eagle St" }, "geometry": { "type": "Point", "coordinates": [ -90.114000428831346, 29.972623853737684 ] } },
{ "type": "Feature", "properties": { "OBJECTID": 77, "NAME": "Walter L. Cohen Academy of Career and Community Education (ACCE)", "ADDRESS": "2503 Willow St" }, "geometry": { "type": "Point", "coordinates": [ -90.093144385374231, 29.942326661116869 ] } },
{ "type": "Feature", "properties": { "OBJECTID": 78, "NAME": "Walter L. Cohen College Prep ", "ADDRESS": "2503 Willow St" }, "geometry": { "type": "Point", "coordinates": [ -90.09196123474868, 29.942956597217592 ] } },
{ "type": "Feature", "properties": { "OBJECTID": 79, "NAME": "ReNEW Schaumburg Elementary", "ADDRESS": "9501 Grant St." }, "geometry": { "type": "Point", "coordinates": [ -89.975657191847958, 30.01929205340705 ] } },
{ "type": "Feature", "properties": { "OBJECTID": 80, "NAME": "Opportunities Academy", "ADDRESS": "2625 Thalia St" }, "geometry": { "type": "Point", "coordinates": [ -90.084716105654493, 29.945790130932934 ] } },
{ "type": "Feature", "properties": { "OBJECTID": 81, "NAME": "New Harmony High", "ADDRESS": "3368 Esplanade St" }, "geometry": { "type": "Point", "coordinates": [ -90.08632365503739, 29.981484429870211 ] } },
{ "type": "Feature", "properties": { "OBJECTID": 82, "NAME": "Morris Jeff Community School", "ADDRESS": "1301 N Derbigny St" }, "geometry": { "type": "Point", "coordinates": [ -90.069913527792437, 29.969877854462322 ] } },
{ "type": "Feature", "properties": { "OBJECTID": 83, "NAME": "Morris Jeff Community School", "ADDRESS": "211 S Lopez St" }, "geometry": { "type": "Point", "coordinates": [ -90.093629823633421, 29.96764808201678 ] } },
{ "type": "Feature", "properties": { "OBJECTID": 84, "NAME": "Martin Behrman Charter School Academy of Creative Arts and Sciences", "ADDRESS": "2832 General Meyer Ave" }, "geometry": { "type": "Point", "coordinates": [ -90.027291651249911, 29.943453568418711 ] } },
{ "type": "Feature", "properties": { "OBJECTID": 85, "NAME": "Lafayette Academy Charter School", "ADDRESS": "2733 Esplanade Ave." }, "geometry": { "type": "Point", "coordinates": [ -90.080046430697351, 29.977861748379848 ] } },
{ "type": "Feature", "properties": { "OBJECTID": 86, "NAME": "Lafayette Academy Charter School", "ADDRESS": "9330 Forshey St" }, "geometry": { "type": "Point", "coordinates": [ -90.123918537981439, 29.970592268045742 ] } },
{ "type": "Feature", "properties": { "OBJECTID": 87, "NAME": "KIPP Believe", "ADDRESS": "3815 St. Bernard Ave" }, "geometry": { "type": "Point", "coordinates": [ -90.078864962913698, 29.996588364196715 ] } },
{ "type": "Feature", "properties": { "OBJECTID": 88, "NAME": "Harriet Tubman Charter School", "ADDRESS": "2701 Lawrence St" }, "geometry": { "type": "Point", "coordinates": [ -90.028701798641677, 29.938141966680828 ] } },
{ "type": "Feature", "properties": { "OBJECTID": 89, "NAME": "Harriet Tubman Charter School", "ADDRESS": "2013 General Meyer Ave" }, "geometry": { "type": "Point", "coordinates": [ -90.036191313352404, 29.944729776657223 ] } },
{ "type": "Feature", "properties": { "OBJECTID": 90, "NAME": "Foundation Preparatory Charter", "ADDRESS": "3121 St. Bernard Ave" }, "geometry": { "type": "Point", "coordinates": [ -90.074771186411894, 29.989516155503914 ] } },
{ "type": "Feature", "properties": { "OBJECTID": 91, "NAME": "Dr. Martin Luther King Jr. Charter School For Science and Technology", "ADDRESS": "5300 Law St" }, "geometry": { "type": "Point", "coordinates": [ -90.014360452708331, 29.976042315924676 ] } },
{ "type": "Feature", "properties": { "OBJECTID": 92, "NAME": "Benjamin Franklin Elementary Mathematics and Science School ", "ADDRESS": "1116 Jefferson Ave" }, "geometry": { "type": "Point", "coordinates": [ -90.114904804998545, 29.923462895496812 ] } },
{ "type": "Feature", "properties": { "OBJECTID": 93, "NAME": "Edward Hynes Charter School - Lakeview Campus", "ADDRESS": "990 Harrison Ave" }, "geometry": { "type": "Point", "coordinates": [ -90.101628400406241, 30.003508739454389 ] } },
{ "type": "Feature", "properties": { "OBJECTID": 94, "NAME": "Edward Hynes Charter School - UNO", "ADDRESS": "6101 Chatham Dr" }, "geometry": { "type": "Point", "coordinates": [ -90.073146728764129, 30.020411387085112 ] } },
{ "type": "Feature", "properties": { "OBJECTID": 95, "NAME": "Edward Hynes Charter School - UNO (French)", "ADDRESS": "6101 Chatham Dr" }, "geometry": { "type": "Point", "coordinates": [ -90.073146728764129, 30.020411387085112 ] } },
{ "type": "Feature", "properties": { "OBJECTID": 96, "NAME": "Waldorf School of New Orleans", "ADDRESS": "517 Soraparu St" }, "geometry": { "type": "Point", "coordinates": [ -90.074720771997548, 29.923917558779937 ] } },
{ "type": "Feature", "properties": { "OBJECTID": 97, "NAME": "Audubon Charter School Montessori", "ADDRESS": "428 Broadway St" }, "geometry": { "type": "Point", "coordinates": [ -90.129890729118785, 29.93418179082115 ] } },
{ "type": "Feature", "properties": { "OBJECTID": 98, "NAME": "Booker T. Washington High School (KIPP)", "ADDRESS": "1201 South Roman St" }, "geometry": { "type": "Point", "coordinates": [ -90.088943358101915, 29.949727992592305 ] } },
{ "type": "Feature", "properties": { "OBJECTID": 99, "NAME": "Rosenwald Collegiate Academy", "ADDRESS": "1801 LB Landry Ave" }, "geometry": { "type": "Point", "coordinates": [ -90.041814036114133, 29.934918933561196 ] } },
{ "type": "Feature", "properties": { "OBJECTID": 100, "NAME": "Ecole Bilingue De La Nouvelle-Orleans", "ADDRESS": "812 General Pershing St" }, "geometry": { "type": "Point", "coordinates": [ -90.100351263864837, 29.92021063069005 ] } },
{ "type": "Feature", "properties": { "OBJECTID": 101, "NAME": "Frederick A. Douglass High School (KIPP Renaissance)", "ADDRESS": "3820 St Claude Ave" }, "geometry": { "type": "Point", "coordinates": [ -90.036912734329007, 29.965692821631425 ] } },
{ "type": "Feature", "properties": { "OBJECTID": 102, "NAME": "Hype Academy", "ADDRESS": "7901 Crowder Blvd" }, "geometry": { "type": "Point", "coordinates": [ -89.998346570056569, 30.040455574654089 ] } },
{ "type": "Feature", "properties": { "OBJECTID": 103, "NAME": "IDEA Oscar Dunn", "ADDRESS": "12000 Hayne Blvd" }, "geometry": { "type": "Point", "coordinates": [ -89.967767653835494, 30.05776191160696 ] } },
{ "type": "Feature", "properties": { "OBJECTID": 104, "NAME": "Living School", "ADDRESS": "6003 Bullard Ave" }, "geometry": { "type": "Point", "coordinates": [ -89.957568592293129, 30.043577312064713 ] } },
{ "type": "Feature", "properties": { "OBJECTID": 105, "NAME": "ReNEW Early Childhood Center @ Gilda's Academy", "ADDRESS": "7653 Lacombe St" }, "geometry": { "type": "Point", "coordinates": [ -89.977837940963639, 30.047666548091652 ] } },
{ "type": "Feature", "properties": { "OBJECTID": 106, "NAME": "Academy Of The Sacred Heart High School", "ADDRESS": "4521 St. Charles Ave" }, "geometry": { "type": "Point", "coordinates": [ -90.103940587007671, 29.926931558613212 ] } },
{ "type": "Feature", "properties": { "OBJECTID": 107, "NAME": "Academy Of The Sacred Heart Lower School", "ADDRESS": "4521 St. Charles Ave" }, "geometry": { "type": "Point", "coordinates": [ -90.103940587007671, 29.926931558613212 ] } },
{ "type": "Feature", "properties": { "OBJECTID": 108, "NAME": "Brother Martin High School", "ADDRESS": "4401 Elysian Fields Ave" }, "geometry": { "type": "Point", "coordinates": [ -90.058479804747762, 30.003997472301212 ] } },
{ "type": "Feature", "properties": { "OBJECTID": 109, "NAME": "Cabrini High School", "ADDRESS": "1400 Moss St" }, "geometry": { "type": "Point", "coordinates": [ -90.088216635801601, 29.981331844332541 ] } },
{ "type": "Feature", "properties": { "OBJECTID": 110, "NAME": "Christian Brothers School", "ADDRESS": "8 Friederichs Ave" }, "geometry": { "type": "Point", "coordinates": [ -90.091306563932463, 29.988673759760189 ] } },
{ "type": "Feature", "properties": { "OBJECTID": 111, "NAME": "De La Salle High School", "ADDRESS": "5300 St. Charles Ave" }, "geometry": { "type": "Point", "coordinates": [ -90.112125246028441, 29.927129134525032 ] } },
{ "type": "Feature", "properties": { "OBJECTID": 112, "NAME": "Holy Cross Middle and High School", "ADDRESS": "5500 Paris Ave" }, "geometry": { "type": "Point", "coordinates": [ -90.075881374907553, 30.014146393484356 ] } },
{ "type": "Feature", "properties": { "OBJECTID": 113, "NAME": "Holy Name Of Jesus Elementary School", "ADDRESS": "6325 Cromwell Pl" }, "geometry": { "type": "Point", "coordinates": [ -90.119682437112033, 29.935890613534891 ] } },
{ "type": "Feature", "properties": { "OBJECTID": 114, "NAME": "Holy Rosary Academy and High School", "ADDRESS": "2437 Jena St" }, "geometry": { "type": "Point", "coordinates": [ -90.104093938226924, 29.935023164585637 ] } },
{ "type": "Feature", "properties": { "OBJECTID": 115, "NAME": "Jesuit High School", "ADDRESS": "4133 Banks St" }, "geometry": { "type": "Point", "coordinates": [ -90.103324888233558, 29.97243059008964 ] } },
{ "type": "Feature", "properties": { "OBJECTID": 116, "NAME": "Lake Castle Private School", "ADDRESS": "8400 Hayne Blvd" }, "geometry": { "type": "Point", "coordinates": [ -89.998864557844541, 30.041648336050471 ] } },
{ "type": "Feature", "properties": { "OBJECTID": 117, "NAME": "Mount Carmel Academy High School", "ADDRESS": "7027 Milne Blvd" }, "geometry": { "type": "Point", "coordinates": [ -90.110579480289744, 30.018607362571061 ] } },
{ "type": "Feature", "properties": { "OBJECTID": 118, "NAME": "Resurrection Of Our Lord Elementary School", "ADDRESS": "4861 Rosalia Dr" }, "geometry": { "type": "Point", "coordinates": [ -89.972736791327137, 30.023793790627824 ] } },
{ "type": "Feature", "properties": { "OBJECTID": 119, "NAME": "St. Andrew The Apostle Elementary School", "ADDRESS": "3131 Eton St" }, "geometry": { "type": "Point", "coordinates": [ -89.998819264378412, 29.92145085234614 ] } },
{ "type": "Feature", "properties": { "OBJECTID": 120, "NAME": "St. Mary's Academy", "ADDRESS": "6905 Chef Menteur Hwy" }, "geometry": { "type": "Point", "coordinates": [ -90.007671035247554, 30.015488542284125 ] } },
{ "type": "Feature", "properties": { "OBJECTID": 121, "NAME": "St. Marys Dominican High School", "ADDRESS": "7701 Walmsley Ave" }, "geometry": { "type": "Point", "coordinates": [ -90.114042679254652, 29.956538433875807 ] } },
{ "type": "Feature", "properties": { "OBJECTID": 122, "NAME": "St. Michael Special School", "ADDRESS": "1522 Chippewa St" }, "geometry": { "type": "Point", "coordinates": [ -90.068580983246392, 29.933226537385213 ] } },
{ "type": "Feature", "properties": { "OBJECTID": 123, "NAME": "St. Peter Claver School", "ADDRESS": "1020 N Prieur St" }, "geometry": { "type": "Point", "coordinates": [ -90.073373160797004, 29.968571421259231 ] } },
{ "type": "Feature", "properties": { "OBJECTID": 124, "NAME": "St. Pius X School", "ADDRESS": "6600 Spanish Fort Blvd" }, "geometry": { "type": "Point", "coordinates": [ -90.090884876630199, 30.024125472681405 ] } },
{ "type": "Feature", "properties": { "OBJECTID": 125, "NAME": "St. Stephen School", "ADDRESS": "1027 Napoleon Ave" }, "geometry": { "type": "Point", "coordinates": [ -90.10128613440979, 29.922636388881326 ] } },
{ "type": "Feature", "properties": { "OBJECTID": 126, "NAME": "St. Alphonsus Elementary School", "ADDRESS": "2001 Constance St" }, "geometry": { "type": "Point", "coordinates": [ -90.074062951565011, 29.930205707586236 ] } },
{ "type": "Feature", "properties": { "OBJECTID": 127, "NAME": "St. Anthony Of Padua School", "ADDRESS": "4601 Cleveland Ave" }, "geometry": { "type": "Point", "coordinates": [ -90.106392452155916, 29.978061523616866 ] } },
{ "type": "Feature", "properties": { "OBJECTID": 128, "NAME": "St. Augustine Senior High School", "ADDRESS": "2600 Ap Tureaud Ave" }, "geometry": { "type": "Point", "coordinates": [ -90.068288806426224, 29.983649810624932 ] } },
{ "type": "Feature", "properties": { "OBJECTID": 129, "NAME": "St. Benedict The Moor Elementary School", "ADDRESS": "5010 Piety Dr" }, "geometry": { "type": "Point", "coordinates": [ -90.036904357258805, 30.012897978123952 ] } },
{ "type": "Feature", "properties": { "OBJECTID": 130, "NAME": "St. Joan Of Arc School", "ADDRESS": "919 Cambronne St" }, "geometry": { "type": "Point", "coordinates": [ -90.133915894221545, 29.947812704898308 ] } },
{ "type": "Feature", "properties": { "OBJECTID": 131, "NAME": "St. Katharine Drexel", "ADDRESS": "5116 Magazine St" }, "geometry": { "type": "Point", "coordinates": [ -90.1105565215355, 29.919866268100506 ] } },
{ "type": "Feature", "properties": { "OBJECTID": 132, "NAME": "St. Rita School", "ADDRESS": "65 Fontainebleau Dr" }, "geometry": { "type": "Point", "coordinates": [ -90.114707499132464, 29.954895933985025 ] } },
{ "type": "Feature", "properties": { "OBJECTID": 133, "NAME": "Stuart Hall", "ADDRESS": "2032 S Carrollton Ave" }, "geometry": { "type": "Point", "coordinates": [ -90.123283621511291, 29.95372947481459 ] } },
{ "type": "Feature", "properties": { "OBJECTID": 134, "NAME": "Good Shepherd Nativity Mission Elementary School", "ADDRESS": "353 Baronne St" }, "geometry": { "type": "Point", "coordinates": [ -90.072918312607698, 29.951240279005241 ] } },
{ "type": "Feature", "properties": { "OBJECTID": 135, "NAME": "Ursuline Academy", "ADDRESS": "2635 State St" }, "geometry": { "type": "Point", "coordinates": [ -90.11396071848678, 29.941319148713003 ] } },
{ "type": "Feature", "properties": { "OBJECTID": 136, "NAME": "Ursuline Academy Elementary School", "ADDRESS": "2635 State St" }, "geometry": { "type": "Point", "coordinates": [ -90.11396071848678, 29.941319148713003 ] } },
{ "type": "Feature", "properties": { "OBJECTID": 137, "NAME": "Christian Brothers School", "ADDRESS": "4600 Canal St" }, "geometry": { "type": "Point", "coordinates": [ -90.106392452155916, 29.978061523616866 ] } },
{ "type": "Feature", "properties": { "OBJECTID": 138, "NAME": "St. Leo the Great", "ADDRESS": "1501 Abundance St" }, "geometry": { "type": "Point", "coordinates": [ -90.073712887647048, 29.988003701667086 ] } },
{ "type": "Feature", "properties": { "OBJECTID": 139, "NAME": "St. Dominic School", "ADDRESS": "6326 Memphis St" }, "geometry": { "type": "Point", "coordinates": [ -90.105977238721309, 30.005565317895709 ] } },
{ "type": "Feature", "properties": { "OBJECTID": 140, "NAME": "Holy Cross Priimary School", "ADDRESS": "5601 Elysian Fields Ave." }, "geometry": { "type": "Point", "coordinates": [ -90.060310927946546, 30.015657515097477 ] } },
{ "type": "Feature", "properties": { "OBJECTID": 141, "NAME": "Calvary Baptist School", "ADDRESS": "2401 General Degaulle Dr" }, "geometry": { "type": "Point", "coordinates": [ -90.03371551919949, 29.929623893984182 ] } },
{ "type": "Feature", "properties": { "OBJECTID": 142, "NAME": "Bishop McManus Academy", "ADDRESS": "13123 I-10 Service Rd" }, "geometry": { "type": "Point", "coordinates": [ -89.950495255856524, 30.05440087100677 ] } },
{ "type": "Feature", "properties": { "OBJECTID": 143, "NAME": "Life Of Christ Christian Academy", "ADDRESS": "1851 N Dorgenois St" }, "geometry": { "type": "Point", "coordinates": [ -90.069329869014481, 29.982160021088887 ] } },
{ "type": "Feature", "properties": { "OBJECTID": 144, "NAME": "Light City Christian Academy", "ADDRESS": "6117 St. Claude Ave" }, "geometry": { "type": "Point", "coordinates": [ -90.010560230298438, 29.959987814466309 ] } },
{ "type": "Feature", "properties": { "OBJECTID": 145, "NAME": "The Upperroom Bible Church Academy", "ADDRESS": "8600 Lake Forest Blvd" }, "geometry": { "type": "Point", "coordinates": [ -89.989001979412706, 30.027213656585001 ] } },
{ "type": "Feature", "properties": { "OBJECTID": 146, "NAME": "St. George's Episcopal School", "ADDRESS": "923 Napoleon Ave" }, "geometry": { "type": "Point", "coordinates": [ -90.100756804135401, 29.921629198480542 ] } },
{ "type": "Feature", "properties": { "OBJECTID": 147, "NAME": "St. Paul's Episcopal School", "ADDRESS": "6249 Canal Blvd" }, "geometry": { "type": "Point", "coordinates": [ -90.107581676192453, 30.004200384364594 ] } },
{ "type": "Feature", "properties": { "OBJECTID": 148, "NAME": "St. Andrew's Episcopal School", "ADDRESS": "8012 Oak St" }, "geometry": { "type": "Point", "coordinates": [ -90.129247837556548, 29.946777728129966 ] } },
{ "type": "Feature", "properties": { "OBJECTID": 149, "NAME": "Trinity Episcopal School", "ADDRESS": "1315 Jackson Ave" }, "geometry": { "type": "Point", "coordinates": [ -90.078112237411077, 29.931837703037417 ] } },
{ "type": "Feature", "properties": { "OBJECTID": 150, "NAME": "St. John Lutheran School", "ADDRESS": "3937 Canal St" }, "geometry": { "type": "Point", "coordinates": [ -90.099184743307447, 29.973867480364827 ] } },
{ "type": "Feature", "properties": { "OBJECTID": 151, "NAME": "University Montessori School", "ADDRESS": "7508 Burthe St" }, "geometry": { "type": "Point", "coordinates": [ -90.127597226257492, 29.941509946391907 ] } },
{ "type": "Feature", "properties": { "OBJECTID": 152, "NAME": "New Orleans Adventist Academy", "ADDRESS": "4500 Gawain Dr" }, "geometry": { "type": "Point", "coordinates": [ -89.986587040085283, 30.016722196106194 ] } },
{ "type": "Feature", "properties": { "OBJECTID": 153, "NAME": "The University of New Orelans", "ADDRESS": "2000 Lakeshore Dr" }, "geometry": { "type": "Point", "coordinates": [ -90.071980813005737, 30.030278618853909 ] } },
{ "type": "Feature", "properties": { "OBJECTID": 154, "NAME": "Tulane University", "ADDRESS": "6823 St. Charles Ave." }, "geometry": { "type": "Point", "coordinates": [ -90.122789449196475, 29.935428844461232 ] } },
{ "type": "Feature", "properties": { "OBJECTID": 155, "NAME": "Loyal University New Orleans", "ADDRESS": "6363 St. Charles Ave." }, "geometry": { "type": "Point", "coordinates": [ -90.121451089932719, 29.933982622850213 ] } },
{ "type": "Feature", "properties": { "OBJECTID": 156, "NAME": "Xavier University of Louisiana", "ADDRESS": "1 Drexel Dr." }, "geometry": { "type": "Point", "coordinates": [ -90.107468414827125, 29.964290600449683 ] } },
{ "type": "Feature", "properties": { "OBJECTID": 157, "NAME": "Dillard University", "ADDRESS": "2601 Gentilly Blvd." }, "geometry": { "type": "Point", "coordinates": [ -90.06337623761209, 29.995895326603538 ] } },
{ "type": "Feature", "properties": { "OBJECTID": 158, "NAME": "University of Holy Cross", "ADDRESS": "4123 Woodland Dr." }, "geometry": { "type": "Point", "coordinates": [ -89.994385401981077, 29.912033338500837 ] } },
{ "type": "Feature", "properties": { "OBJECTID": 159, "NAME": "Southern University at New Orleans", "ADDRESS": "6400 Press Dr." }, "geometry": { "type": "Point", "coordinates": [ -90.044263822733996, 30.025832787129858 ] } },
{ "type": "Feature", "properties": { "OBJECTID": 160, "NAME": "Louisiana State University Health Sciences Center New Orleans", "ADDRESS": "433 Bolivar St." }, "geometry": { "type": "Point", "coordinates": [ -90.083045411823306, 29.95747488590273 ] } },
{ "type": "Feature", "properties": { "OBJECTID": 161, "NAME": "Delagado Community College", "ADDRESS": "615 City Park Ave." }, "geometry": { "type": "Point", "coordinates": [ -90.103874413954287, 29.986884099273837 ] } },
{ "type": "Feature", "properties": { "OBJECTID": 162, "NAME": "Crescent School Gaming and Bartending", "ADDRESS": "209 N. Broad St." }, "geometry": { "type": "Point", "coordinates": [ -90.086539907211659, 29.966871248651103 ] } },
{ "type": "Feature", "properties": { "OBJECTID": 163, "NAME": "Tech Talent South - NOLA Campus", "ADDRESS": "3014 Dauphine St." }, "geometry": { "type": "Point", "coordinates": [ -90.046658419179892, 29.96431364042067 ] } },
{ "type": "Feature", "properties": { "OBJECTID": 164, "NAME": "Saint Agatha Career School", "ADDRESS": "7078 Read Blvd" }, "geometry": { "type": "Point", "coordinates": [ -89.978750687752779, 30.038660700975086 ] } },
{ "type": "Feature", "properties": { "OBJECTID": 165, "NAME": "Nursing Assistant Network Association", "ADDRESS": "4509 Freret St." }, "geometry": { "type": "Point", "coordinates": [ -90.104465491441417, 29.935250889796759 ] } }
]
}
